City_ID,City,Lat,Lng,Max Temp,Humidity,Cloudiness,Wind Speed,Country,Date
0,ust-nera,64.5667,143.2,22.33,58,11,3.48,RU,1688389792
1,port-aux-francais,-49.35,70.2167,5.01,80,12,12.51,TF,1688389792
2,ust'-ordynskiy,52.805,104.7508,15.65,90,100,2.4,RU,1688389793
3,qianzhou,28.3167,109.7167,28.07,82,100,1.3,CN,1688389793
4,qaqortoq,60.7167,-46.0333,6.18,71,100,2.31,GL,1688389794
5,queenstown,-31.8976,26.8753,20.06,17,0,8.45,ZA,1688389794
6,kruisfontein,-34.0033,24.7314,18.27,54,8,5.68,ZA,1688389794
7,saipan,15.1355,145.701,28.39,100,0,3.09,MP,1688389795
8,nemuro,43.3236,145.575,14.05,99,100,2.1,JP,1688389795
9,punta arenas,-53.15,-70.9167,2.06,87,75,3.6,CL,1688389796
10,luganville,-15.5333,167.1667,23.41,74,100,5.2,VU,1688389796
11,labrador city,52.9463,-66.9114,20.55,67,6,2.21,CA,1688389797
12,kani keli,-12.9536,45.1033,27.59,63,3,6.09,YT,1688389797
13,fort riley north,39.1108,-96.8139,22.78,76,40,1.34,US,1688389798
14,lamia,38.9,22.4333,33.39,41,64,4.02,GR,1688389798
15,sorong,-0.8833,131.25,26.79,84,24,2.0,ID,1688389799
16,alta,69.9689,23.2717,15.59,62,0,4.12,NO,1688389799
17,adamstown,-25.066,-130.1015,20.46,63,5,3.59,PN,1688389800
18,hermanus,-34.4187,19.2345,18.22,79,73,3.77,ZA,1688389800
19,tromso,69.6496,18.957,15.01,36,20,4.63,NO,1688389545
20,grytviken,-54.2811,-36.5092,-4.29,65,100,1.86,GS,1688389801
21,khanu woralaksaburi,16.0617,99.8606,28.2,66,100,5.12,TH,1688389802
22,saint-joseph,-21.3667,55.6167,23.59,69,36,6.9,RE,1688389803
23,yellowknife,62.456,-114.3525,13.13,52,4,5.23,CA,1688389804
24,fort bragg,35.139,-79.006,28.44,83,20,2.57,US,1688389805
25,okhotsk,59.3833,143.3,13.07,87,95,4.37,RU,1688389805
26,lorengau,-2.0226,147.2712,27.95,82,100,4.39,PG,1688389806
27,blackmans bay,-43.0167,147.3167,4.74,92,100,1.07,AU,1688389806
28,tiksi,71.6872,128.8694,3.36,78,100,4.23,RU,1688389807
29,port elizabeth,-33.918,25.5701,19.5,81,71,6.71,ZA,1688389808
30,mando,10.7167,6.5667,32.87,47,87,2.22,NG,1688389808
31,albany,42.6001,-73.9662,23.13,92,100,0.93,US,1688389573
32,bethel,41.3712,-73.414,25.11,82,75,3.09,US,1688389573
33,lebu,-37.6167,-73.65,11.64,84,9,7.18,CL,1688389810
34,praia da vitoria,38.7333,-27.0667,22.09,69,97,3.77,PT,1688389810
35,loncoche,-39.3667,-72.6333,9.3,90,100,3.87,CL,1688389811
36,tambura,5.6,27.4667,31.25,47,67,2.2,SS,1688389811
37,fort st. john,56.2499,-120.8529,10.49,91,100,4.12,CA,1688389812
38,port alfred,-33.5906,26.891,22.77,45,7,5.38,ZA,1688389812
39,happy valley-goose bay,53.3168,-60.3315,22.17,73,75,2.57,CA,1688389813
40,kilindoni,-7.9139,39.6668,25.1,72,74,6.65,TZ,1688389813
41,zakynthos,37.7914,20.8953,28.68,54,20,4.12,GR,1688389814
42,dudinka,69.4058,86.1778,21.46,41,100,3.35,RU,1688389814
43,yuzhno-kurilsk,44.0306,145.8556,13.24,99,97,1.54,RU,1688389815
44,georgetown,5.4112,100.3354,29.97,74,20,1.03,MY,1688389815
45,kingscliff,-28.2667,153.5667,15.98,82,40,4.12,AU,1688389816
46,puerto ayora,-0.7393,-90.3518,25.31,93,100,3.58,EC,1688389816
47,tosno,59.54,30.8775,19.91,48,28,5.98,RU,1688389817
48,thohoyandou,-22.9456,30.485,23.05,38,54,2.96,ZA,1688389818
49,bilibino,68.0546,166.4372,11.67,88,100,1.19,RU,1688389818
50,edinburgh of the seven seas,-37.0676,-12.3116,12.27,61,100,0.41,SH,1688389820
51,wailua homesteads,22.0669,-159.378,25.44,87,40,4.63,US,1688389821
52,waitangi,-43.9535,-176.5597,7.88,59,100,16.84,NZ,1688389821
53,xining,36.6167,101.7667,14.77,58,3,2.27,CN,1688389822
54,arua,3.0201,30.9111,26.58,49,19,3.9,UG,1688389822
55,papatowai,-46.5619,169.4708,9.57,91,100,10.23,NZ,1688389823
56,bei'an,24.5399,109.533,27.0,87,100,3.64,CN,1688389827
57,bodo,67.28,14.405,16.64,53,75,5.66,NO,1688389656
58,leh,34.1667,77.5833,21.18,17,22,3.68,IN,1688389836
59,rio grande,-32.035,-52.0986,17.06,82,100,7.31,BR,1688389687
60,kerikeri,-35.2268,173.9474,12.73,79,2,1.79,NZ,1688389672
61,miyaly,48.8844,53.7836,31.97,25,70,7.4,KZ,1688389838
62,brokopondo,4.75,-55.1667,26.8,80,89,2.78,SR,1688389840
63,mirny,62.5353,113.9611,19.71,58,100,2.09,RU,1688389841
64,port mathurin,-19.6833,63.4167,23.55,64,29,10.66,MU,1688389841
65,lompoc,34.6391,-120.4579,14.18,97,100,3.09,US,1688389842
66,mezhdurechenskiy,59.6,65.9333,30.87,35,66,4.71,RU,1688389842
67,klaksvik,62.2266,-6.589,10.51,81,100,10.05,FO,1688389843
68,nishinoomote,30.7333,131.0,25.71,90,100,7.39,JP,1688389843
69,linares,-35.85,-71.6,10.87,93,100,0.99,CL,1688389843
70,pisco,-13.7,-76.2167,20.03,73,100,2.06,PE,1688389844
71,sao gabriel da cachoeira,-0.1303,-67.0892,23.91,93,89,0.56,BR,1688389845
72,viedma,-40.8135,-62.9967,10.94,55,100,5.31,AR,1688389845
73,olonkinbyen,70.9221,-8.7187,3.73,89,56,8.68,SJ,1688389845
74,myitkyina,25.3833,97.4,25.64,97,17,0.41,MM,1688389846
75,galliano,29.4422,-90.2992,31.0,74,0,0.0,US,1688389846
76,devin,41.7433,24.4,24.99,53,98,0.53,BG,1688389847
77,urucui,-7.2294,-44.5561,32.32,35,100,4.16,BR,1688389847
78,shingu,33.7333,135.9833,22.63,95,18,2.91,JP,1688389848
79,umka,44.6781,20.3047,29.99,46,0,3.6,RS,1688389848
80,apatity,67.5641,33.4031,16.69,46,32,1.45,RU,1688389848
81,nova sintra,14.8667,-24.7167,21.77,71,61,4.88,CV,1688389849
82,lihue,21.9789,-159.3672,25.77,82,40,4.63,US,1688389850
83,chinde,26.8418,88.0763,19.02,97,100,0.8,NP,1688389850
84,puerto natales,-51.7236,-72.4875,4.25,70,75,5.14,CL,1688389850
85,monrovia,6.3005,-10.7969,27.87,85,100,3.93,LR,1688389851
86,kupang,-10.1667,123.5833,25.32,88,20,3.09,ID,1688389852
87,visakhapatnam,17.69,83.2093,28.94,74,40,4.12,IN,1688389852
88,bismarck,46.8083,-100.7837,18.26,86,75,2.57,US,1688389605
89,longyearbyen,78.2186,15.6401,11.91,40,0,6.69,SJ,1688389853
90,fortuna,40.5982,-124.1573,9.19,100,75,3.09,US,1688389853
91,talnakh,69.4865,88.3972,21.23,44,100,1.6,RU,1688389854
92,la souterraine,46.2371,1.487,19.17,81,100,3.36,FR,1688389854
93,ushuaia,-54.8,-68.3,6.81,61,40,3.6,AR,1688389638
94,quang ngai,15.1167,108.8,26.87,86,100,2.74,VN,1688389555
95,anadyr,64.75,177.4833,3.28,93,75,1.79,RU,1688389855
96,iskateley,67.6803,53.1512,20.03,70,100,2.72,RU,1688389856
97,novoishimskiy,53.1981,66.7694,25.45,52,75,3.0,KZ,1688389856
98,quellon,-43.1167,-73.6167,8.14,87,100,4.12,CL,1688389857
99,isafjordur,66.0755,-23.124,13.02,47,0,7.2,IS,1688389857
100,tostado,-29.232,-61.7692,22.77,60,99,6.02,AR,1688389859
101,dabakala,8.3667,-4.4333,28.19,70,99,2.81,CI,1688389860
102,saldanha,-33.0117,17.9442,20.03,80,36,5.55,ZA,1688389860
103,vrangel',42.7297,133.0839,16.62,94,100,3.15,RU,1688389861
104,codrington,-38.2667,141.9667,8.66,79,100,3.26,AU,1688389861
105,plastun,44.7561,136.2939,14.58,98,87,0.37,RU,1688389862
106,sisimiut,66.9395,-53.6735,6.05,88,100,5.91,GL,1688389862
107,bubaque,11.2833,-15.8333,27.44,80,100,3.24,GW,1688389863
108,hamilton,39.1834,-84.5333,23.09,93,100,4.12,US,1688389589
109,arno,60.1167,18.6333,13.21,91,100,0.84,SE,1688389864
110,avarua,-21.2078,-159.775,22.03,100,18,1.03,CK,1688389865
111,isangel,-19.55,169.2667,21.11,73,90,5.81,VU,1688389865
112,hawaiian paradise park,19.5933,-154.9731,22.24,97,100,3.09,US,1688389866
113,summerside,46.3959,-63.7876,19.82,98,100,8.79,CA,1688389745
114,port lincoln,-34.7333,135.8667,10.66,78,0,2.87,AU,1688389867
115,prado,-17.3411,-39.2208,24.09,59,49,6.22,BR,1688389867
116,levuka,50.1834,-105.4011,11.9,65,1,6.73,CA,1688389868
117,newman,37.3138,-121.0208,22.38,67,4,0.45,US,1688389868
118,port douglas,-16.4833,145.4667,23.86,90,98,0.91,AU,1688389613
119,olavarria,-36.8927,-60.3225,14.36,95,99,2.45,AR,1688389869
120,ciudad lazaro cardenas,17.9583,-102.2,26.12,79,55,2.08,MX,1688389869
121,cabo san lucas,22.8909,-109.9124,27.01,78,75,4.63,MX,1688389690
122,newport,51.5877,-2.9984,19.53,68,61,11.75,GB,1688389618
123,hithadhoo,-0.6,73.0833,28.45,70,100,7.21,MV,1688389871
124,acapulco de juarez,16.8634,-99.8901,26.9,89,40,2.57,MX,1688389809
125,springfield,37.2153,-93.2982,24.79,86,0,2.57,US,1688389869
126,nguigmi,14.2495,13.1092,36.86,28,37,3.0,NE,1688389873
127,labuan,5.2767,115.2417,27.25,80,100,5.71,MY,1688389874
128,dwarka,22.2394,68.9678,29.95,77,79,4.85,IN,1688389875
129,kununurra,-15.7667,128.7333,18.99,72,54,2.06,AU,1688389875
130,ribeira grande,38.5167,-28.7,21.54,78,40,3.6,PT,1688389876
131,east london,-33.0153,27.9116,24.52,46,0,1.54,ZA,1688389625
132,remire-montjoly,4.9167,-52.2667,28.02,78,75,2.06,GF,1688389877
133,iqaluit,63.7506,-68.5145,4.85,80,75,2.06,CA,1688389877
134,necocli,8.4234,-76.786,26.19,87,13,3.79,CO,1688389878
135,khor,47.8861,134.9464,18.24,62,15,2.12,RU,1688389879
136,hammerfest,70.6634,23.6821,14.25,51,0,6.69,NO,1688389879
137,tibati,6.4667,12.6333,26.86,70,83,1.86,CM,1688389880
138,kapa'a,22.0752,-159.319,26.18,87,40,4.63,US,1688389880
139,new norfolk,-42.7826,147.0587,5.4,87,100,0.56,AU,1688389881
140,kailua-kona,19.6406,-155.9956,27.0,88,20,2.06,US,1688389623
141,yanchep,-31.55,115.6833,13.4,77,80,8.24,AU,1688389882
142,san clemente del tuyu,-36.3569,-56.7235,13.45,95,100,5.42,AR,1688389882
143,margaret river,-33.95,115.0667,11.87,72,97,9.63,AU,1688389883
144,machina,13.1364,10.0492,38.89,21,25,0.93,NG,1688389883
145,embi,48.8264,58.1442,27.57,32,30,7.61,KZ,1688389884
146,stanley,54.868,-1.6985,18.06,60,20,8.23,GB,1688389694
147,ilulissat,69.2167,-51.1,13.01,41,40,9.26,GL,1688389885
148,n'zeto,-7.2312,12.8666,24.8,72,3,4.4,AO,1688389885
149,fale old settlement,-9.3852,-171.2468,28.49,67,9,7.7,TK,1688389886
150,bredasdorp,-34.5322,20.0403,18.13,60,86,4.67,ZA,1688389886
151,whitehorse,60.7161,-135.0538,10.45,75,0,5.66,CA,1688389886
152,hadibu,12.65,54.0333,27.49,66,100,8.76,YE,1688389887
153,kingston,17.997,-76.7936,29.58,76,100,0.45,JM,1688389712
154,verkhnevilyuysk,63.4453,120.3167,19.92,65,98,2.04,RU,1688389888
155,la sarre,48.8002,-79.1996,22.66,68,0,1.35,CA,1688389888
156,beyneu,45.3167,55.2,33.58,23,35,6.62,KZ,1688389889
157,rawlins,41.7911,-107.2387,14.94,41,0,1.54,US,1688389749
158,afaahiti,-17.75,-149.2833,24.93,85,60,7.85,PF,1688389889
159,balaguer,41.7912,0.8109,33.98,30,7,1.75,ES,1688389890
160,west island,-12.1568,96.8225,25.99,73,40,5.66,CC,1688389890
161,korla,41.7597,86.1469,33.71,12,0,4.05,CN,1688389891
162,kavalerovo,44.2661,135.0572,15.93,99,98,0.55,RU,1688389891
163,kodinsk,58.6881,99.1844,19.45,61,100,2.22,RU,1688389892
164,petrovsk,52.3064,45.3917,25.54,69,34,5.89,RU,1688389892
165,cockburn town,21.4612,-71.1419,28.09,81,11,7.45,TC,1688389893
166,sao joao da barra,-21.6403,-41.0511,21.05,56,93,7.54,BR,1688389894
167,shengli,37.4564,118.4856,31.16,54,100,1.96,CN,1688389894
168,port-gentil,-0.7193,8.7815,27.98,61,20,6.69,GA,1688389895
169,sault ste. marie,46.5168,-84.3333,19.16,81,0,4.12,CA,1688389895
170,masumbwe,-3.6333,32.1833,29.33,28,54,2.54,TZ,1688389896
171,enewetak,11.3474,162.3373,28.11,79,100,7.7,MH,1688389896
172,khandyga,62.6667,135.6,21.63,77,69,2.08,RU,1688389897
173,patacamaya,-17.2333,-67.9167,9.3,18,1,0.5,BO,1688389898
174,geraldton,-28.7667,114.6,16.23,88,75,3.6,AU,1688389898
175,kincardine,56.0667,-3.7167,17.15,70,98,7.44,GB,1688389899
176,santo antonio,-6.3106,-35.4789,28.42,65,48,5.63,BR,1688389899
177,lhokseumawe,5.1801,97.1507,27.33,79,56,0.4,ID,1688389728
178,kone,-21.0595,164.8658,18.06,78,100,1.92,NC,1688389900
179,chonchi,-42.6128,-73.8092,8.56,86,100,4.65,CL,1688389901
180,bageshwar,29.85,79.7667,25.82,84,35,1.22,IN,1688389902
181,vadso,70.0744,29.7487,10.49,81,75,2.06,NO,1688389902
182,ekuvukeni,-28.4675,30.1551,24.06,13,0,0.31,ZA,1688389903
183,tosontsengel,48.7567,98.2839,9.4,82,100,2.05,MN,1688389903
184,illizi,26.4833,8.4667,44.89,6,5,2.62,DZ,1688389904
185,bandiagara,14.3501,-3.6104,36.21,33,39,3.82,ML,1688389905
186,san jose,37.3394,-121.895,17.6,77,20,2.57,US,1688389775
187,knyaze-volkonskoye,48.4642,135.4567,19.19,72,75,1.48,RU,1688389905
188,filadelfia,39.9523,-75.1638,28.34,82,75,2.57,US,1688389681
189,howard springs,-12.497,131.047,24.95,56,96,3.83,AU,1688389906
190,nallihan,40.1859,31.3518,32.73,22,63,2.76,TR,1688389907
191,flying fish cove,-10.4217,105.6791,23.82,78,22,4.63,CX,1688389907
192,benjamin constant,-4.3831,-70.0311,26.03,78,0,1.54,BR,1688389907
193,bel ombre,-4.6167,55.4167,26.91,69,20,5.14,SC,1688389908
194,vorgashor,67.5833,63.95,22.77,63,100,5.4,RU,1688389909
195,mthatha,-31.5889,28.7844,26.31,18,0,1.03,ZA,1688389909
196,dunedin,-45.8742,170.5036,10.45,61,94,5.81,NZ,1688389729
197,college,64.8569,-147.8028,15.99,70,75,0.0,US,1688389910
198,utrik,11.2278,169.8474,28.08,77,62,7.67,MH,1688389911
199,kodiak,57.79,-152.4072,8.73,93,100,7.2,US,1688389911
200,brisas de zicatela,15.8369,-97.0419,26.29,73,40,4.63,MX,1688389912
201,vila velha,-20.3297,-40.2925,22.97,69,40,5.66,BR,1688389912
202,wuzhou,23.4833,111.3167,26.16,92,100,1.2,CN,1688389913
203,mejit,10.2753,170.8646,28.21,78,17,7.74,MH,1688389913
204,chegdomyn,51.1167,133.0167,18.95,59,14,1.6,RU,1688389914
205,porto velho,-8.7619,-63.9039,28.03,78,0,0.51,BR,1688389686
206,guarapari,-20.6667,-40.4975,21.61,65,38,7.76,BR,1688389775
207,thompson,55.7435,-97.8558,15.09,94,75,4.12,CA,1688389915
208,kapuskasing,49.4169,-82.4331,23.05,68,0,1.54,CA,1688389915
209,kalmunai,7.4167,81.8167,27.35,81,100,3.76,LK,1688389916
210,melfort,52.8667,-104.6177,13.07,71,100,8.75,CA,1688389916
211,tsiombe,-25.3,45.4833,22.36,57,2,6.37,MG,1688389916
212,askino,56.0901,56.5783,24.29,57,78,2.2,RU,1688389917
213,kiffa,16.6166,-11.4045,37.88,29,19,3.4,MR,1688389917
214,udachny,66.4167,112.4,16.1,53,1,5.61,RU,1688389918
215,la passe,45.5549,-0.8967,24.13,76,96,4.7,FR,1688389918
216,okha,53.5739,142.9478,8.7,94,20,2.94,RU,1688389919
217,christchurch,-43.5333,172.6333,5.53,77,0,2.06,NZ,1688389652
218,price,39.5994,-110.8107,17.59,39,0,0.0,US,1688389919
219,saynshand,44.8824,110.1163,16.69,69,1,3.07,MN,1688389920
220,polyarnyy,69.1989,33.4478,9.52,91,100,4.48,RU,1688389921
221,hun,29.1268,15.9477,37.64,21,0,4.07,LY,1688389921
222,sinhyeon,34.8825,128.6267,24.94,96,100,3.11,KR,1688389922
223,invercargill,-46.4,168.35,9.86,91,100,9.53,NZ,1688389838
224,gwadar,25.1216,62.3254,29.76,74,15,4.81,PK,1688389923
225,uturoa,-16.7333,-151.4333,26.56,81,38,6.44,PF,1688389924
226,shelton,41.3165,-73.0932,26.6,77,40,3.09,US,1688389924
227,pacific grove,36.6177,-121.9166,13.78,95,100,2.57,US,1688389925
228,chiguayante,-36.9167,-73.0167,10.29,94,75,4.63,CL,1688389926
229,dursunbey,39.586,28.6257,30.07,33,28,4.21,TR,1688389926
230,pionerskiy,54.9508,20.2275,20.91,62,77,8.31,RU,1688389927
231,callao,-12.0667,-77.15,22.16,68,100,2.06,PE,1688389927
232,tazacorte,28.629,-17.9293,25.54,65,75,5.66,ES,1688389928
233,kuressaare,58.2481,22.5039,16.97,72,40,8.75,EE,1688389928
234,daru,-9.0763,143.2092,26.23,88,100,4.63,PG,1688389929
235,san matias,-16.3667,-58.4,24.99,34,20,1.28,BO,1688389877
236,usogorsk,63.4106,48.6872,22.48,48,98,2.89,RU,1688389930
237,bernardo de irigoyen,-26.2552,-53.6458,16.96,71,6,1.93,AR,1688389930
238,puerto baquerizo moreno,-0.9,-89.6,24.53,82,99,6.02,EC,1688389931
239,chernyshevskiy,63.0128,112.4714,18.93,67,100,1.09,RU,1688389932
240,jatiroto,-7.8833,111.1167,22.34,90,96,2.26,ID,1688389932
241,megion,61.0296,76.1136,26.01,49,57,4.94,RU,1688389933
242,coquimbo,-29.9533,-71.3436,10.85,66,0,1.03,CL,1688389933
243,margate,51.3813,1.3862,21.5,57,100,4.92,GB,1688389713
244,misliyah,17.4599,42.5572,36.95,35,95,7.22,SA,1688389934
245,nikolayevsk-on-amure,53.1406,140.73,12.13,88,49,1.17,RU,1688389934
246,torghay,49.6339,63.4981,25.64,37,92,4.92,KZ,1688389935
247,alice springs,-23.7,133.8833,9.75,71,100,2.06,AU,1688389654
248,tura,25.5198,90.2201,24.22,96,100,1.28,IN,1688389936
249,kamaishi,39.2667,141.8833,18.28,95,82,1.35,JP,1688389936
250,cannonvale,-20.2833,148.7,23.66,87,100,6.07,AU,1688389937
251,taulaga,-11.0553,-171.0883,28.39,73,53,8.16,AS,1688389937
252,dubbo,-32.25,148.6167,11.07,87,100,3.6,AU,1688389938
253,mount gambier,-37.8333,140.7667,8.0,83,100,2.57,AU,1688389938
254,crane,31.3974,-102.3501,24.04,72,32,2.4,US,1688389939
255,quimili,-27.6333,-62.4167,22.89,43,60,6.99,AR,1688389939
256,tokar,18.4254,37.729,39.86,23,100,3.91,SD,1688389940
257,kismayo,-0.3582,42.5454,26.74,69,18,8.39,SO,1688389940
258,bikenibeu village,1.3673,173.1241,26.98,89,75,1.03,KI,1688389941
259,cole harbour,44.6724,-63.4751,19.54,98,100,2.24,CA,1688389768
260,kushiro,42.975,144.3747,14.37,98,70,1.89,JP,1688389942
261,aromashevo,56.8602,68.6375,26.89,66,62,4.1,RU,1688389942
262,norrkoping,58.5942,16.1826,15.66,72,75,8.75,SE,1688389854
263,khedbrahma,24.0333,73.05,34.33,53,100,3.43,IN,1688389943
264,manokwari,-0.8667,134.0833,25.9,86,75,1.09,ID,1688389944
265,yerkoy,39.6381,34.4672,33.62,19,19,2.01,TR,1688389944
266,pangody,65.85,74.4859,23.77,63,100,5.59,RU,1688389945
267,ado-odo,6.6,2.9333,29.05,72,97,3.87,NG,1688389945
268,saurimo,-9.6608,20.3916,29.93,15,0,4.15,AO,1688389945
269,njombe,-9.3333,34.7667,18.34,41,7,4.56,TZ,1688389946
270,ubari,26.5921,12.7805,42.2,8,0,1.8,LY,1688389946
271,anan,33.9167,134.65,23.25,92,0,1.23,JP,1688389947
272,acarau,-2.8856,-40.12,29.5,64,16,5.96,BR,1688389763
273,sept-iles,50.2001,-66.3821,18.29,99,100,2.57,CA,1688389948
274,jiangzi,28.95,89.6333,13.62,48,100,2.37,CN,1688389936
275,bekalta,35.6174,10.9947,31.01,48,0,4.9,TN,1688389950
276,sambalpur,21.45,83.9667,31.95,57,87,1.3,IN,1688389951
277,tarakan,3.3,117.6333,26.72,94,40,3.6,ID,1688389952
278,carnarvon,-24.8667,113.6333,18.45,68,0,5.0,AU,1688389875
279,tolanaro,-25.0319,46.9987,21.99,62,5,5.87,MG,1688389953
280,aasiaat,68.7098,-52.8699,4.39,72,100,2.57,GL,1688389953
281,parauapebas,-6.0675,-49.9022,30.99,54,0,2.06,BR,1688389956
282,sola,-13.8833,167.55,24.78,73,100,10.03,VU,1688389959
283,ambon,-3.6954,128.1814,26.08,89,40,3.09,ID,1688389959
284,balezino,57.9796,53.0106,24.03,61,16,4.42,RU,1688389960
285,urangan,-25.3,152.9,19.84,74,100,7.75,AU,1688389961
286,nar'yan-mar,67.6713,53.087,20.29,68,100,2.8,RU,1688389961
287,inirida,3.8653,-67.9239,24.81,93,83,0.84,CO,1688389848
288,balykshi,47.0667,51.8667,33.0,27,40,11.0,KZ,1688389962
289,mildura,-34.2,142.15,9.48,86,100,1.57,AU,1688389962
290,gaigeturi,33.4644,126.3183,24.22,98,100,2.01,KR,1688389963
291,badger,64.8,-147.5333,15.95,69,20,0.0,US,1688389847
292,gadzhiyevo,69.2551,33.3362,9.44,90,100,4.62,RU,1688389964
293,iguape,-24.7081,-47.5553,19.84,76,94,4.52,BR,1688389964
294,vernon,50.2581,-119.2691,13.5,51,0,0.89,CA,1688389712
295,minas de marcona,-15.2119,-75.1103,13.54,81,28,2.02,PE,1688389965
296,puerto penasco,31.3167,-113.5333,27.73,81,0,4.92,MX,1688389965
297,karungdong,5.8844,121.263,25.55,88,100,0.48,PH,1688389966
298,black point,-34.6187,137.8972,11.27,73,100,4.46,AU,1688389967
299,hilo,19.7297,-155.09,22.36,97,100,3.09,US,1688389967
300,ujae,8.9322,165.7642,28.42,78,35,7.98,MH,1688389968
301,pagar alam,-4.0167,103.2667,21.27,96,99,0.73,ID,1688389968
302,vacaria,-28.5122,-50.9339,16.49,63,13,4.33,BR,1688389968
303,lerwick,60.1545,-1.1494,13.0,83,100,6.44,GB,1688389969
304,sawakin,19.1059,37.3321,35.38,42,100,4.98,SD,1688389969
305,bam,29.106,58.357,42.51,9,5,5.52,IR,1688389970
306,paita,-5.0892,-81.1144,22.35,77,28,4.44,PE,1688389970
307,takoradi,4.8845,-1.7554,26.47,79,99,2.96,GH,1688389971
308,kunszentmarton,46.8392,20.2888,30.56,39,0,2.57,HU,1688389971
309,burang,30.25,81.1667,13.85,64,86,3.59,CN,1688389971
310,onega,63.9061,38.1404,14.67,92,100,3.18,RU,1688389972
311,antonio enes,-16.2325,39.9086,26.59,55,31,3.45,MZ,1688389972
312,tulun,54.5611,100.5792,15.89,83,100,3.34,RU,1688389973
313,tamanrasset,22.785,5.5228,37.95,9,0,4.12,DZ,1688389974
314,aral,40.5156,81.2636,36.27,10,6,4.54,CN,1688389975
315,holualoa,19.6228,-155.9522,24.93,84,20,2.06,US,1688389975
316,tiruchchendur,8.4833,78.1167,29.14,66,100,6.55,IN,1688389976
317,loukhi,66.0764,33.0381,15.86,50,31,4.39,RU,1688389976
318,baoqing,46.3317,132.2111,19.63,85,4,1.27,CN,1688389977
319,kirakira,-10.4544,161.9205,26.31,85,100,6.74,SB,1688389977
320,sant antoni de portmany,38.9807,1.3036,29.99,62,20,3.6,ES,1688389978
321,warrnambool,-38.3833,142.4833,9.73,81,100,2.82,AU,1688389978
322,machico,32.7,-16.7667,26.51,70,20,8.23,PT,1688389760
323,klyuchi,52.2667,79.1667,30.52,27,31,3.36,RU,1688389979
324,elk city,35.412,-99.4043,22.99,94,75,1.54,US,1688389934
325,ndelele,4.0333,14.9333,27.48,73,14,1.46,CM,1688389884
326,taguatinga,-12.3857,-46.5711,28.58,29,85,3.04,BR,1688389981
327,ceylanpinar,36.8472,40.05,40.61,7,0,3.69,TR,1688389687
328,ancud,-41.8697,-73.8203,9.41,88,100,8.98,CL,1688389982
329,constantia,44.1833,28.65,28.38,72,40,4.33,RO,1688389872
330,val-d'or,48.1002,-77.7828,23.05,60,0,2.57,CA,1688389904
331,hsinchu,24.8036,120.9686,30.5,69,15,0.89,TW,1688389984
332,jamestown,42.097,-79.2353,21.12,91,100,3.6,US,1688389938
333,juan griego,11.0817,-63.9655,28.64,72,100,3.68,VE,1688389985
334,yarega,63.4354,53.5765,23.17,62,2,1.77,RU,1688389985
335,kongolo,-5.3833,27.0,34.09,23,14,2.5,CD,1688389986
336,vilyuysk,63.7553,121.6247,19.64,68,98,2.02,RU,1688389986
337,nogliki,51.8333,143.1667,8.61,97,97,2.86,RU,1688389721
338,dalandzadgad,43.5708,104.425,21.35,17,14,8.66,MN,1688389695
339,great falls,47.5002,-111.3008,13.25,65,100,2.57,US,1688389987
340,namtsy,62.7161,129.6658,20.46,70,2,3.2,RU,1688389988
341,radomyshl,50.4961,29.2291,25.61,41,13,4.8,UA,1688389988
342,urumqi,43.801,87.6005,30.53,12,0,3.0,CN,1688389989
343,maba,24.6841,113.5984,25.76,93,90,1.82,CN,1688389989
344,posto fiscal rolim de moura,-13.0833,-62.2667,23.82,45,0,1.49,BR,1688389990
345,almodovar del rio,37.8336,-5.0167,37.49,27,20,4.63,ES,1688389990
346,waterloo,43.4668,-80.5164,20.31,97,100,3.09,CA,1688389914
347,tres isletas,-26.3407,-60.4321,22.01,51,77,3.66,AR,1688389991
348,south sioux city,42.4739,-96.4136,23.44,72,0,2.24,US,1688389992
349,fisterra,42.9049,-9.2629,26.68,81,6,8.38,ES,1688389992
350,tanacu,46.6833,27.8167,27.23,50,82,2.91,RO,1688389992
351,laguna,38.421,-121.4238,23.38,59,0,3.09,US,1688389993
352,saudarkrokur,65.7461,-19.6394,7.01,81,100,6.71,IS,1688389994
353,veraval,20.9,70.3667,29.19,83,100,5.08,IN,1688389763
354,portage la prairie,49.9728,-98.2926,18.29,69,0,2.68,CA,1688389994
355,kantilo,20.35,85.1833,31.69,64,58,4.19,IN,1688389995
356,la ronge,55.1001,-105.2842,13.14,88,100,5.14,CA,1688389995
357,rongelap,11.1635,166.8941,28.45,75,53,7.7,MH,1688389996
358,zintan,31.9223,12.252,34.94,20,12,1.94,LY,1688389996
359,ust'-kulom,61.6864,53.6902,23.0,69,14,3.05,RU,1688389997
360,dolores,-36.3132,-57.6792,14.5,90,64,2.81,AR,1688389997
361,gaspe,48.8334,-64.4819,21.4,80,100,0.83,CA,1688389704
362,qom,34.6401,50.8764,38.68,14,0,6.43,IR,1688389998
363,keflavik,64.0049,-22.5624,14.95,51,0,8.23,IS,1688389999
364,gumdag,39.2061,54.5906,37.44,14,0,6.43,TM,1688389999
365,araguaina,-7.1911,-48.2072,31.22,36,100,1.73,BR,1688390000
366,jayapura,-2.5333,140.7,27.66,89,96,3.43,ID,1688390000
367,kenai,60.5544,-151.2583,12.24,92,100,5.66,US,1688390000
368,hillsboro,45.5229,-122.9898,15.67,69,0,0.45,US,1688389986
369,fort payne,34.4442,-85.7197,24.12,90,0,0.45,US,1688390001
370,corinth,37.9407,22.9573,31.47,44,32,2.12,GR,1688390002
371,helena valley west central,46.6629,-112.0604,13.97,63,0,4.12,US,1688390002
372,konarka,19.9,86.1167,30.22,76,18,5.08,IN,1688389734
373,ashland,40.8167,-82.2665,20.71,98,42,3.41,US,1688389975
374,lezo,43.3214,-1.8974,24.32,67,40,3.09,ES,1688390003
375,summerland,49.5998,-119.6691,13.77,39,20,4.12,CA,1688390004
376,port blair,11.6667,92.75,28.02,83,40,4.12,IN,1688390004
377,guatrache,-37.6678,-63.5302,12.6,86,100,1.92,AR,1688390005
378,maffra,-37.9667,146.9833,7.14,85,100,0.38,AU,1688390005
379,la'ie,21.6477,-157.9253,26.98,80,59,2.24,US,1688390006
380,el calafate,-50.3408,-72.2768,0.96,93,100,0.79,AR,1688390006
381,zhangye,38.9342,100.4517,23.23,25,2,2.84,CN,1688390006
382,murzuq,25.9155,13.9184,41.27,9,0,1.74,LY,1688390007
383,mundwa,27.0667,73.8167,37.24,39,100,4.69,IN,1688390007
384,hotan,37.0997,79.9269,34.12,5,96,3.97,CN,1688390008
385,mabaruma,8.2,-59.7833,26.92,90,84,0.54,GY,1688390008
386,leua,48.2156,18.6071,24.67,50,98,4.24,SK,1688390009
387,meulaboh,4.1363,96.1285,26.15,78,13,0.56,ID,1688390009
388,broken hill,-31.95,141.4333,8.55,94,100,2.22,AU,1688389714
389,guerrero negro,27.9769,-114.0611,15.67,94,42,3.44,MX,1688390010
390,al mijlad,11.0333,27.7333,35.31,31,12,1.88,SD,1688390010
391,hastings,50.8552,0.5729,21.05,22,45,10.82,GB,1688390011
392,vad,55.5301,44.2114,23.11,75,24,6.58,RU,1688390011
393,mo i rana,66.3128,14.1428,14.26,54,75,5.66,NO,1688390012
394,igarka,67.4667,86.5833,20.43,51,100,1.71,RU,1688390012
395,kidal,18.4411,1.4078,41.6,18,5,3.79,ML,1688390012
396,pola de laviana,43.2454,-5.5629,22.31,62,75,2.76,ES,1688390013
397,fort mcmurray,56.7268,-111.381,11.77,87,100,7.2,CA,1688390013
398,lycksele,64.5954,18.6735,17.46,39,20,2.57,SE,1688390014
399,kuta,-8.7233,115.1723,26.67,88,75,4.02,ID,1688390014
400,berezovyy,51.6667,135.7,19.12,74,76,1.75,RU,1688390015
401,letterkenny,54.95,-7.7333,16.94,53,25,7.1,IE,1688390015
402,magdagachi,53.45,125.8,20.4,56,0,0.98,RU,1688390016
403,kyshtovka,56.555,76.6271,18.87,90,100,3.91,RU,1688390016
404,muroto-misakicho,33.2833,134.15,23.23,88,3,4.14,JP,1688390017
405,les avirons,-21.2418,55.3394,22.43,60,20,9.77,RE,1688390017
406,songea,-10.6833,35.65,20.66,43,90,4.13,TZ,1688390018
407,bailen,38.0964,-3.7779,38.9,17,0,4.83,ES,1688390018
408,birao,10.2849,22.7882,35.32,37,77,0.85,CF,1688390018
409,sabang,5.8933,95.3214,28.37,75,35,4.18,ID,1688390019
410,kyabe,9.4515,18.9449,29.85,58,88,2.56,TD,1688390019
411,belyy yar,53.6039,91.3903,19.94,52,0,2.0,RU,1688390020
412,bamboo flat,11.7,92.7167,28.05,83,40,4.12,IN,1688390020
413,huarmey,-10.0681,-78.1522,20.77,79,98,2.68,PE,1688390021
414,niepolomice,50.0407,20.2226,26.75,32,14,6.39,PL,1688390021
415,cartagena,10.3997,-75.5144,27.29,79,100,1.97,CO,1688389981
416,ajdabiya,30.7554,20.2263,28.25,55,0,7.67,LY,1688390022
417,susuman,62.7833,148.1667,23.97,43,100,1.55,RU,1688390022
418,aleksandrovsk,59.158,57.5624,24.31,56,40,2.1,RU,1688390023
419,weno,7.4515,151.8468,26.97,89,100,1.54,FM,1688390023
420,selkirk,50.1436,-96.8845,20.61,71,0,1.34,CA,1688390024
421,akhtubinsk,48.2795,46.1722,32.19,32,75,4.73,RU,1688390024
422,souillac,-20.5167,57.5167,23.21,73,75,6.17,MU,1688390025
423,ta`u,-14.2336,-169.5144,27.32,73,11,7.2,AS,1688390025
424,shetpe,44.1667,52.1167,32.27,20,0,2.21,KZ,1688390026
425,andergrove,-21.0833,149.1833,22.03,85,100,6.11,AU,1688390026
426,juruti,-2.1522,-56.0922,26.98,88,25,2.06,BR,1688390027
427,santa rosa,14.3122,121.1114,30.62,83,79,4.29,PH,1688390027
428,lima,-12.0432,-77.0282,21.14,82,100,2.06,PE,1688389955
429,smithers,54.7804,-127.1743,5.18,100,0,0.0,CA,1688389817
430,kaduy,59.2,37.15,17.32,63,93,5.02,RU,1688390029
431,el porvenir,13.7617,-87.3458,22.63,92,100,1.65,HN,1688390029
432,harrisonburg,38.4496,-78.8689,25.65,78,0,1.54,US,1688390029
433,coyhaique,-45.5752,-72.0662,2.97,100,100,1.54,CL,1688390030
434,isiro,2.7739,27.616,28.18,58,86,0.64,CD,1688390030
435,pariaman,-0.619,100.12,26.33,86,97,0.91,ID,1688390031
436,myeik,12.4333,98.6,26.13,86,100,0.52,MM,1688390031
437,itamaraca,-7.7478,-34.8256,27.03,85,83,5.08,BR,1688390031
438,miles city,46.4083,-105.8406,15.54,77,75,8.23,US,1688389989
439,cartagena del chaira,1.3349,-74.8429,23.66,88,83,0.31,CO,1688390032
440,sangkhla buri,15.1555,98.4536,23.39,98,100,0.25,TH,1688390033
441,puerto aysen,-45.4,-72.7,4.74,99,100,3.22,CL,1688390033
442,sur,22.5667,59.5289,30.19,72,14,2.95,OM,1688390034
443,closepet,12.7167,77.3,24.17,80,100,6.3,IN,1688390034
444,san antonio de pale,-1.4014,5.6325,23.65,85,31,5.26,GQ,1688390034
445,manturovo,58.3353,44.7619,22.11,57,99,4.19,RU,1688390035
446,presque isle,46.6811,-68.0159,19.72,86,100,3.09,US,1688390035
447,egilsstadir,65.2653,-14.3948,7.95,76,75,7.2,IS,1688390036
448,luwuk,-0.9516,122.7875,25.74,89,97,1.08,ID,1688390032
449,danville,36.586,-79.395,28.02,90,98,0.89,US,1688389849
450,konduga,11.6558,13.4213,38.79,21,100,1.7,NG,1688390037
451,cherdyn',60.403,56.4787,24.67,49,54,3.2,RU,1688390038
452,tawau,4.2498,117.8871,26.07,83,100,1.79,MY,1688390038
453,sainte-marie,-20.8968,55.5496,24.47,73,0,10.29,RE,1688390038
454,howrah,22.5892,88.3103,30.0,84,75,3.6,IN,1688390038
455,sechura,-5.5569,-80.8222,22.58,75,22,4.03,PE,1688390039
456,san andres,12.5847,-81.7006,27.3,85,100,6.08,CO,1688390040
457,camilla,31.2313,-84.2105,27.14,80,100,2.01,US,1688390040
458,bridgewater,44.3835,-64.5155,19.5,99,100,6.69,CA,1688390041
459,page,36.9147,-111.4558,25.88,23,0,1.54,US,1688389833
460,island harbour,50.724,-1.2758,19.55,75,49,2.68,GB,1688390042
461,aginskoye,51.1,114.53,19.63,63,100,1.59,RU,1688390042
462,saint-francois,46.4154,3.9054,22.69,53,100,3.6,FR,1688390043
463,yatou,37.15,122.3833,23.74,94,100,2.9,CN,1688390043
464,honggang,46.4667,124.8667,23.16,68,87,3.5,CN,1688390044
465,katabu,-4.9333,122.5167,24.13,95,100,1.78,ID,1688390044
466,karratha,-20.7377,116.8463,18.69,53,0,2.05,AU,1688390045
467,horta,38.5333,-28.6333,21.12,77,75,4.12,PT,1688390046
468,tarnogskiy gorodok,60.4997,43.5761,15.47,94,100,4.45,RU,1688390047
469,nova russas,-4.7067,-40.5631,32.44,43,0,1.34,BR,1688389917
470,atafu village,-8.5421,-172.5159,28.54,74,19,7.85,TK,1688390048
471,nadym,65.5333,72.5167,30.11,45,59,6.99,RU,1688390048
472,vilhena,-12.7406,-60.1458,27.12,39,0,2.57,BR,1688390049
473,lapseki,40.3442,26.6856,32.88,49,44,1.27,TR,1688390049
474,avanigadda,16.0215,80.9181,28.86,87,100,5.08,IN,1688390050
475,pontes e lacerda,-15.2261,-59.3353,24.11,39,80,0.56,BR,1688389752
476,colonia,50.9333,6.95,23.23,48,0,9.77,DE,1688390007
477,blagoveshchensk,50.2667,127.5333,20.79,83,20,2.0,RU,1688390051
478,puerto armuelles,8.2833,-82.8667,26.76,80,100,0.45,PA,1688389912
479,duragan,41.4158,35.0544,32.98,38,13,2.56,TR,1688390052
480,yeppoon,-23.1333,150.7333,21.25,82,100,7.99,AU,1688390052
481,novodvinsk,64.4165,40.8122,19.84,67,100,3.32,RU,1688390058
482,selfoss,63.9331,-20.9971,16.69,57,91,2.85,IS,1688390058
483,tazovsky,67.4667,78.7,13.09,90,100,4.62,RU,1688390059
484,amqui,48.4638,-67.4313,19.45,93,100,0.9,CA,1688390060
485,green river,41.5286,-109.4662,17.22,41,0,2.08,US,1688390060
486,st. john's,47.5649,-52.7093,24.04,75,75,8.23,CA,1688389928
487,cururupu,-1.8283,-44.8683,30.11,62,5,3.02,BR,1688389951
488,calama,-22.4667,-68.9333,10.27,14,0,11.83,CL,1688389899
489,imbituba,-28.24,-48.6703,18.81,83,100,4.67,BR,1688389966
490,alamosa,37.4695,-105.87,7.99,76,0,0.0,US,1688390063
491,grande prairie,55.1667,-118.8027,12.1,87,100,6.69,CA,1688390063
492,petropavlovsk-kamchatsky,53.0452,158.6483,13.33,88,75,1.0,RU,1688390063
493,campbellton,48.0075,-66.6727,19.25,97,100,1.09,CA,1688390064
494,arraial do cabo,-22.9661,-42.0278,22.92,49,40,5.14,BR,1688390064
495,ntoum,0.3833,9.7833,26.87,49,58,2.1,GA,1688390065
496,am timan,11.0297,20.2827,33.24,43,100,3.2,TD,1688390066
497,kendal,54.3268,-2.7476,15.61,62,87,7.57,GB,1688389881
498,pottenstein,49.7722,11.4092,22.42,57,97,5.57,DE,1688390066
499,hobyo,5.3505,48.5268,26.98,68,51,13.37,SO,1688390067
500,malakal,9.5334,31.6605,35.61,35,21,0.27,SS,1688390067
501,brookings,44.3114,-96.7984,23.19,74,0,1.54,US,1688389924
502,raduzhnyy,62.0961,77.475,25.12,44,99,2.79,RU,1688390068
503,malango,-2.9627,119.9001,20.61,99,100,0.67,ID,1688390069
504,dakhla,23.6848,-15.958,27.01,61,30,7.72,EH,1688390069
505,khilok,51.3674,110.4676,13.31,99,100,0.98,RU,1688390070
506,meadow lake,34.8014,-106.5436,21.12,58,0,1.64,US,1688390070
507,lazaro cardenas,17.9583,-102.2,26.12,79,55,2.08,MX,1688390071
508,sarnia,42.9787,-82.4041,21.53,96,100,3.6,CA,1688389943
509,nova vicosa,-17.8919,-39.3719,23.4,63,78,7.68,BR,1688389930
510,es castell,39.8795,4.2854,27.38,74,40,5.14,ES,1688390072
511,ahar,38.4774,47.0699,27.06,40,5,8.08,IR,1688390073
512,dalbandin,28.8947,64.4101,43.05,13,75,6.46,PK,1688390074
513,jumla,29.2747,82.1838,19.97,88,54,1.55,NP,1688390074
514,kuraymah,18.55,31.85,41.54,8,100,5.15,SD,1688390075
515,huaicheng,23.9051,112.1931,25.26,97,80,0.9,CN,1688390075
516,portland,45.5234,-122.6762,15.89,75,0,0.45,US,1688389649
517,essaouira,31.5125,-9.77,29.72,79,1,5.66,MA,1688390076
518,ende,-8.8432,121.6623,24.92,92,92,2.82,ID,1688390076
519,sanctuary point,-35.1114,150.629,15.18,93,99,2.17,AU,1688390077
520,chengtangcun,35.0771,117.1518,27.14,89,100,4.08,CN,1688390078
521,tomatlan,19.9333,-105.25,25.11,89,100,0.55,MX,1688390078
522,kurara,25.9833,79.9833,36.46,43,100,2.79,IN,1688390078
523,morales,2.757,-76.6172,18.17,86,52,0.25,CO,1688390079
524,rumuruti,0.267,36.5389,21.26,50,100,5.42,KE,1688390079
525,florence,43.7667,11.25,33.23,47,40,2.57,IT,1688389992
526,gorodishche,48.8045,44.4744,32.49,29,0,3.0,RU,1688390080
527,tremonton,41.7119,-112.1655,20.78,62,0,3.13,US,1688390081
528,suntar,62.1444,117.6319,19.96,67,100,0.08,RU,1688390082
529,porto novo,6.4965,2.6036,28.9,69,88,4.28,BJ,1688390082
530,surab,28.4914,66.2585,35.92,13,100,7.46,PK,1688390083
531,luau,-10.7073,22.2247,28.55,17,0,3.33,AO,1688390083
532,coihueco,-36.6167,-71.8333,8.41,100,75,2.57,CL,1688390084
533,macapa,0.0389,-51.0664,28.99,84,75,4.12,BR,1688389954
534,kamareddi,18.3167,78.35,31.23,53,100,2.78,IN,1688390085
535,haugesund,59.4138,5.268,13.14,94,75,9.77,NO,1688390085
536,polygyros,40.3744,23.4383,30.7,57,44,3.09,GR,1688390086
537,wickenburg,33.9686,-112.7296,27.6,19,0,1.61,US,1688390086
538,deqen,29.9618,90.7188,13.78,67,80,2.08,CN,1688390086
539,maintirano,-18.0667,44.0167,25.73,54,0,6.09,MG,1688390087
540,nabire,-3.3667,135.4833,26.16,88,100,0.47,ID,1688390087
541,san patricio,28.017,-97.5169,29.39,84,28,2.67,US,1688390088
542,santa cruz,-17.8,-63.1667,22.03,78,75,4.63,BO,1688390088
543,lamarque,-39.423,-65.7021,11.19,62,90,3.7,AR,1688390088
544,eforie sud,44.0229,28.6494,30.45,69,37,4.29,RO,1688390089
545,gillette,44.2911,-105.5022,16.64,68,0,4.02,US,1688389799
546,nuevo casas grandes,30.4167,-107.9167,21.98,49,14,1.38,MX,1688390090
547,sierra grande,-41.606,-65.3557,10.12,47,100,10.35,AR,1688390090
548,dapa,9.7594,126.0531,27.97,77,100,5.49,PH,1688390090
549,mogadishu,2.0371,45.3438,26.34,73,27,8.15,SO,1688389905
550,malmberget,67.1753,20.6549,13.31,38,40,3.6,SE,1688390091
551,aykhal,66.0,111.5,16.14,52,1,3.66,RU,1688390092
552,broome,42.2506,-75.833,21.22,98,100,1.54,US,1688390092
553,katsuren-haebaru,26.3369,127.8719,29.21,79,20,3.09,JP,1688390093
554,dazuocun,24.8862,118.9643,27.57,88,95,8.1,CN,1688390093
555,olinda,-8.0089,-34.8553,26.85,74,75,4.12,BR,1688390094
556,ust'-kut,56.7938,105.7672,18.13,81,100,2.03,RU,1688390094
557,alofi,-19.0595,-169.9187,25.94,73,40,0.51,NU,1688390095
558,bischofshofen,47.4167,13.2167,22.82,75,100,1.87,AT,1688390095
559,ulladulla,-35.35,150.4667,11.53,91,100,2.28,AU,1688390096
560,kantunilkin,21.0917,-87.45,25.15,90,100,0.66,MX,1688389808
561,timbuktu,16.7735,-3.0074,40.53,23,82,5.98,ML,1688390096
562,arzgir,45.3728,44.2206,33.38,24,3,2.03,RU,1688390097
563,ploneour-lanvern,47.9,-4.2833,21.18,52,20,4.63,FR,1688390098
564,jiuquan,39.7432,98.5174,26.44,12,0,11.82,CN,1688390099
565,argo,37.6333,22.7333,32.66,51,62,2.33,GR,1688390099
566,kolonia,50.9333,6.95,23.23,48,0,9.77,DE,1688390007
567,puerto colombia,10.9878,-74.9547,27.77,78,100,2.17,CO,1688389941
568,zdar nad sazavou,49.5626,15.9392,25.29,27,43,2.24,CZ,1688390100
569,nikel,69.4128,30.222,10.1,60,26,4.31,RU,1688390101
570,northam,51.0333,-4.2167,18.12,74,82,10.86,GB,1688390102
571,kilju,40.9642,129.3278,19.53,98,58,0.23,KP,1688390103
572,sundern,51.3333,8.0,19.95,56,100,4.92,DE,1688390103
573,yanam,16.7333,82.2167,27.96,87,97,2.63,IN,1688389962
574,santa ana,33.7456,-117.8678,18.77,91,100,0.89,US,1688389824
575,yima,34.7381,111.8839,19.85,91,100,6.82,CN,1688390105
